{
  "map":{
     "lines":{

     },
     "stations":{
        "0":{
           "id":"0",
           "lat":41.857908,
           "lng":-87.669147,
           "name":"18th"
        },
        "1":{
           "id":"1",
           "lat":41.829353,
           "lng":-87.680622,
           "name":"35th/Archer"
        },
        "2":{
           "id":"2",
           "lat":41.831677,
           "lng":-87.625826,
           "name":"35th-Bronzeville-IIT"
        },
        "3":{
           "id":"3",
           "lat":41.816462,
           "lng":-87.619021,
           "name":"43rd"
        },
        "4":{
           "id":"4",
           "lat":41.809209,
           "lng":-87.618826,
           "name":"47th"
        },
        "5":{
           "id":"5",
           "lat":41.810318,
           "lng":-87.63094,
           "name":"47th"
        },
        "6":{
           "id":"6",
           "lat":41.80209,
           "lng":-87.618487,
           "name":"51st"
        },
        "7":{
           "id":"7",
           "lat":41.85177331,
           "lng":-87.75669201,
           "name":"54th/Cermak"
        },
        "8":{
           "id":"8",
           "lat":41.780536,
           "lng":-87.630952,
           "name":"63rd"
        },
        "9":{
           "id":"9",
           "lat":41.768367,
           "lng":-87.625724,
           "name":"69th"
        },
        "10":{
           "id":"10",
           "lat":41.750419,
           "lng":-87.625112,
           "name":"79th"
        },
        "11":{
           "id":"11",
           "lat":41.735372,
           "lng":-87.624717,
           "name":"87th"
        },
        "12":{
           "id":"12",
           "lat":41.722377,
           "lng":-87.624342,
           "name":"95th/Dan Ryan"
        },
        "13":{
           "id":"13",
           "lat":41.879507,
           "lng":-87.626037,
           "name":"Adams/Wabash"
        },
        "14":{
           "id":"14",
           "lat":41.94738,
           "lng":-87.71906,
           "name":"Addison"
        },
        "15":{
           "id":"15",
           "lat":41.947028,
           "lng":-87.674642,
           "name":"Addison"
        },
        "16":{
           "id":"16",
           "lat":41.947428,
           "lng":-87.653626,
           "name":"Addison"
        },
        "17":{
           "id":"17",
           "lat":41.973453,
           "lng":-87.65853,
           "name":"Argyle"
        },
        "18":{
           "id":"18",
           "lat":41.918217,
           "lng":-87.652644,
           "name":"Armitage"
        },
        "19":{
           "id":"19",
           "lat":41.885269,
           "lng":-87.666969,
           "name":"Ashland"
        },
        "20":{
           "id":"20",
           "lat":41.839234,
           "lng":-87.665317,
           "name":"Ashland"
        },
        "21":{
           "id":"21",
           "lat":41.77886,
           "lng":-87.663766,
           "name":"Ashland/63rd"
        },
        "22":{
           "id":"22",
           "lat":41.870851,
           "lng":-87.776812,
           "name":"Austin"
        },
        "23":{
           "id":"23",
           "lat":41.887293,
           "lng":-87.774135,
           "name":"Austin"
        },
        "24":{
           "id":"24",
           "lat":41.938132,
           "lng":-87.712359,
           "name":"Belmont"
        },
        "25":{
           "id":"25",
           "lat":41.939751,
           "lng":-87.65338,
           "name":"Belmont"
        },
        "26":{
           "id":"26",
           "lat":41.977984,
           "lng":-87.658668,
           "name":"Berwyn"
        },
        "27":{
           "id":"27",
           "lat":41.983504,
           "lng":-87.65884,
           "name":"Bryn Mawr"
        },
        "28":{
           "id":"28",
           "lat":41.854109,
           "lng":-87.694774,
           "name":"California"
        },
        "29":{
           "id":"29",
           "lat":41.88422,
           "lng":-87.696234,
           "name":"California"
        },
        "30":{
           "id":"30",
           "lat":41.921939,
           "lng":-87.69689,
           "name":"California"
        },
        "31":{
           "id":"31",
           "lat":41.887389,
           "lng":-87.76565,
           "name":"Central"
        },
        "32":{
           "id":"32",
           "lat":42.063987,
           "lng":-87.685617,
           "name":"Central"
        },
        "33":{
           "id":"33",
           "lat":41.853839,
           "lng":-87.714842,
           "name":"Central Park"
        },
        "34":{
           "id":"34",
           "lat":41.853206,
           "lng":-87.630968,
           "name":"Cermak-Chinatown"
        },
        "35":{
           "id":"35",
           "lat":41.853115,
           "lng":-87.626402,
           "name":"Cermak-McCormick Place"
        },
        "36":{
           "id":"36",
           "lat":41.896075,
           "lng":-87.655214,
           "name":"Chicago"
        },
        "37":{
           "id":"37",
           "lat":41.89681,
           "lng":-87.635924,
           "name":"Chicago"
        },
        "38":{
           "id":"38",
           "lat":41.896671,
           "lng":-87.628176,
           "name":"Chicago"
        },
        "39":{
           "id":"39",
           "lat":41.85182,
           "lng":-87.745336,
           "name":"Cicero"
        },
        "40":{
           "id":"40",
           "lat":41.871574,
           "lng":-87.745154,
           "name":"Cicero"
        },
        "41":{
           "id":"41",
           "lat":41.886519,
           "lng":-87.744698,
           "name":"Cicero"
        },
        "42":{
           "id":"42",
           "lat":41.90392,
           "lng":-87.631412,
           "name":"Clark/Division"
        },
        "43":{
           "id":"43",
           "lat":41.885737,
           "lng":-87.630886,
           "name":"Clark/Lake"
        },
        "44":{
           "id":"44",
           "lat":41.875539,
           "lng":-87.640984,
           "name":"Clinton"
        },
        "45":{
           "id":"45",
           "lat":41.885678,
           "lng":-87.641782,
           "name":"Clinton"
        },
        "46":{
           "id":"46",
           "lat":41.884904,
           "lng":-87.716523,
           "name":"Conservatory"
        },
        "47":{
           "id":"47",
           "lat":41.780309,
           "lng":-87.605857,
           "name":"Cottage Grove"
        },
        "48":{
           "id":"48",
           "lat":41.984246,
           "lng":-87.838028,
           "name":"Cumberland"
        },
        "49":{
           "id":"49",
           "lat":41.854517,
           "lng":-87.675975,
           "name":"Damen"
        },
        "50":{
           "id":"50",
           "lat":41.909744,
           "lng":-87.677437,
           "name":"Damen"
        },
        "51":{
           "id":"51",
           "lat":41.966286,
           "lng":-87.678639,
           "name":"Damen"
        },
        "52":{
           "id":"52",
           "lat":42.04771,
           "lng":-87.683543,
           "name":"Davis"
        },
        "53":{
           "id":"53",
           "lat":42.041655,
           "lng":-87.681602,
           "name":"Dempster"
        },
        "54":{
           "id":"54",
           "lat":42.038951,
           "lng":-87.751919,
           "name":"Dempster-Skokie"
        },
        "55":{
           "id":"55",
           "lat":41.932732,
           "lng":-87.653131,
           "name":"Diversey"
        },
        "56":{
           "id":"56",
           "lat":41.903355,
           "lng":-87.666496,
           "name":"Division"
        },
        "57":{
           "id":"57",
           "lat":41.874257,
           "lng":-87.817318,
           "name":"Forest Park"
        },
        "58":{
           "id":"58",
           "lat":42.05416,
           "lng":-87.68356,
           "name":"Foster"
        },
        "59":{
           "id":"59",
           "lat":41.966046,
           "lng":-87.701644,
           "name":"Francisco"
        },
        "60":{
           "id":"60",
           "lat":41.925051,
           "lng":-87.652866,
           "name":"Fullerton"
        },
        "61":{
           "id":"61",
           "lat":41.795172,
           "lng":-87.618327,
           "name":"Garfield"
        },
        "62":{
           "id":"62",
           "lat":41.79542,
           "lng":-87.631157,
           "name":"Garfield"
        },
        "63":{
           "id":"63",
           "lat":41.891189,
           "lng":-87.647578,
           "name":"Grand"
        },
        "64":{
           "id":"64",
           "lat":41.891665,
           "lng":-87.628021,
           "name":"Grand"
        },
        "65":{
           "id":"65",
           "lat":41.993664,
           "lng":-87.659202,
           "name":"Granville"
        },
        "66":{
           "id":"66",
           "lat":41.84678,
           "lng":-87.648088,
           "name":"Halsted"
        },
        "67":{
           "id":"67",
           "lat":41.778943,
           "lng":-87.644244,
           "name":"Halsted"
        },
        "68":{
           "id":"68",
           "lat":41.98227,
           "lng":-87.8089,
           "name":"Harlem"
        },
        "69":{
           "id":"69",
           "lat":41.87349,
           "lng":-87.806961,
           "name":"Harlem"
        },
        "70":{
           "id":"70",
           "lat":41.886848,
           "lng":-87.803176,
           "name":"Harlem/Lake"
        },
        "71":{
           "id":"71",
           "lat":41.876862,
           "lng":-87.628196,
           "name":"Harold Washington Library-State/Van Buren"
        },
        "72":{
           "id":"72",
           "lat":41.874039,
           "lng":-87.627479,
           "name":"Harrison"
        },
        "73":{
           "id":"73",
           "lat":42.019063,
           "lng":-87.672892,
           "name":"Howard"
        },
        "74":{
           "id":"74",
           "lat":41.875706,
           "lng":-87.673932,
           "name":"Illinois Medical District"
        },
        "75":{
           "id":"75",
           "lat":41.821732,
           "lng":-87.621371,
           "name":"Indiana"
        },
        "76":{
           "id":"76",
           "lat":41.952925,
           "lng":-87.729229,
           "name":"Irving Park"
        },
        "77":{
           "id":"77",
           "lat":41.954521,
           "lng":-87.674868,
           "name":"Irving Park"
        },
        "78":{
           "id":"78",
           "lat":41.878183,
           "lng":-87.629296,
           "name":"Jackson"
        },
        "79":{
           "id":"79",
           "lat":41.878153,
           "lng":-87.627596,
           "name":"Jackson"
        },
        "80":{
           "id":"80",
           "lat":42.015876,
           "lng":-87.669092,
           "name":"Jarvis"
        },
        "81":{
           "id":"81",
           "lat":41.970634,
           "lng":-87.760892,
           "name":"Jefferson Park"
        },
        "82":{
           "id":"82",
           "lat":41.804236,
           "lng":-87.704406,
           "name":"Kedzie"
        },
        "83":{
           "id":"83",
           "lat":41.853964,
           "lng":-87.705408,
           "name":"Kedzie"
        },
        "84":{
           "id":"84",
           "lat":41.965996,
           "lng":-87.708821,
           "name":"Kedzie"
        },
        "85":{
           "id":"85",
           "lat":41.884321,
           "lng":-87.706155,
           "name":"Kedzie"
        },
        "86":{
           "id":"86",
           "lat":41.874341,
           "lng":-87.70604,
           "name":"Kedzie-Homan"
        },
        "87":{
           "id":"87",
           "lat":41.967901,
           "lng":-87.713065,
           "name":"Kimball"
        },
        "88":{
           "id":"88",
           "lat":41.78013,
           "lng":-87.615546,
           "name":"King Drive"
        },
        "89":{
           "id":"89",
           "lat":41.853751,
           "lng":-87.733258,
           "name":"Kostner"
        },
        "90":{
           "id":"90",
           "lat":41.884809,
           "lng":-87.627813,
           "name":"Lake"
        },
        "91":{
           "id":"91",
           "lat":41.887163,
           "lng":-87.754986,
           "name":"Laramie"
        },
        "92":{
           "id":"92",
           "lat":41.875568,
           "lng":-87.631722,
           "name":"LaSalle"
        },
        "93":{
           "id":"93",
           "lat":41.8768,
           "lng":-87.631739,
           "name":"LaSalle/Van Buren"
        },
        "94":{
           "id":"94",
           "lat":41.969139,
           "lng":-87.658493,
           "name":"Lawrence"
        },
        "95":{
           "id":"95",
           "lat":42.073153,
           "lng":-87.69073,
           "name":"Linden"
        },
        "96":{
           "id":"96",
           "lat":41.929728,
           "lng":-87.708541,
           "name":"Logan Square"
        },
        "97":{
           "id":"97",
           "lat":42.001073,
           "lng":-87.661061,
           "name":"Loyola"
        },
        "98":{
           "id":"98",
           "lat":42.033456,
           "lng":-87.679538,
           "name":"Main"
        },
        "99":{
           "id":"99",
           "lat":41.888969,
           "lng":-87.633924,
           "name":"Merchandise Mart"
        },
        "100":{
           "id":"100",
           "lat":41.78661,
           "lng":-87.737875,
           "name":"Midway"
        },
        "101":{
           "id":"101",
           "lat":41.880703,
           "lng":-87.629378,
           "name":"Monroe"
        },
        "102":{
           "id":"102",
           "lat":41.880745,
           "lng":-87.627696,
           "name":"Monroe"
        },
        "103":{
           "id":"103",
           "lat":41.961539,
           "lng":-87.743574,
           "name":"Montrose"
        },
        "104":{
           "id":"104",
           "lat":41.961756,
           "lng":-87.675047,
           "name":"Montrose"
        },
        "105":{
           "id":"105",
           "lat":41.885586,
           "lng":-87.652193,
           "name":"Morgan"
        },
        "106":{
           "id":"106",
           "lat":42.008362,
           "lng":-87.665909,
           "name":"Morse"
        },
        "107":{
           "id":"107",
           "lat":41.910655,
           "lng":-87.649177,
           "name":"North/Clybourn"
        },
        "108":{
           "id":"108",
           "lat":42.058282,
           "lng":-87.683337,
           "name":"Noyes"
        },
        "109":{
           "id":"109",
           "lat":41.872108,
           "lng":-87.791602,
           "name":"Oak Park"
        },
        "110":{
           "id":"110",
           "lat":41.886988,
           "lng":-87.793783,
           "name":"Oak Park"
        },
        "111":{
           "id":"111",
           "lat":42.02624348,
           "lng":-87.74722084,
           "name":"Oakton-Skokie"
        },
        "112":{
           "id":"112",
           "lat":41.97766526,
           "lng":-87.90422307,
           "name":"O'Hare"
        },
        "113":{
           "id":"113",
           "lat":41.943623,
           "lng":-87.670907,
           "name":"Paulina"
        },
        "114":{
           "id":"114",
           "lat":41.871551,
           "lng":-87.66953,
           "name":"Polk"
        },
        "115":{
           "id":"115",
           "lat":41.799756,
           "lng":-87.724493,
           "name":"Pulaski"
        },
        "116":{
           "id":"116",
           "lat":41.853732,
           "lng":-87.724311,
           "name":"Pulaski"
        },
        "117":{
           "id":"117",
           "lat":41.873797,
           "lng":-87.725663,
           "name":"Pulaski"
        },
        "118":{
           "id":"118",
           "lat":41.885412,
           "lng":-87.725404,
           "name":"Pulaski"
        },
        "119":{
           "id":"119",
           "lat":41.878723,
           "lng":-87.63374,
           "name":"Quincy/Wells"
        },
        "120":{
           "id":"120",
           "lat":41.87592,
           "lng":-87.659458,
           "name":"Racine"
        },
        "121":{
           "id":"121",
           "lat":41.887159,
           "lng":-87.783661,
           "name":"Ridgeland"
        },
        "122":{
           "id":"122",
           "lat":41.966115,
           "lng":-87.6941,
           "name":"Rockwell"
        },
        "123":{
           "id":"123",
           "lat":41.867405,
           "lng":-87.62659,
           "name":"Roosevelt"
        },
        "124":{
           "id":"124",
           "lat":41.983507,
           "lng":-87.859388,
           "name":"Rosemont"
        },
        "125":{
           "id":"125",
           "lat":41.910409,
           "lng":-87.639302,
           "name":"Sedgwick"
        },
        "126":{
           "id":"126",
           "lat":41.953775,
           "lng":-87.654929,
           "name":"Sheridan"
        },
        "127":{
           "id":"127",
           "lat":42.027612,
           "lng":-87.678329,
           "name":"South Boulevard"
        },
        "128":{
           "id":"128",
           "lat":41.943744,
           "lng":-87.663619,
           "name":"Southport"
        },
        "129":{
           "id":"129",
           "lat":41.831191,
           "lng":-87.630636,
           "name":"Sox-35th"
        },
        "130":{
           "id":"130",
           "lat":41.88574,
           "lng":-87.627835,
           "name":"State/Lake"
        },
        "131":{
           "id":"131",
           "lat":41.990259,
           "lng":-87.659076,
           "name":"Thorndale"
        },
        "132":{
           "id":"132",
           "lat":41.875474,
           "lng":-87.649707,
           "name":"UIC-Halsted"
        },
        "133":{
           "id":"133",
           "lat":41.883164,
           "lng":-87.62944,
           "name":"Washington"
        },
        "134":{
           "id":"134",
           "lat":41.88322,
           "lng":-87.626189,
           "name":"Washington/Wabash"
        },
        "135":{
           "id":"135",
           "lat":41.882695,
           "lng":-87.63378,
           "name":"Washington/Wells"
        },
        "136":{
           "id":"136",
           "lat":41.936033,
           "lng":-87.653266,
           "name":"Wellington"
        },
        "137":{
           "id":"137",
           "lat":41.804546,
           "lng":-87.684019,
           "name":"Western"
        },
        "138":{
           "id":"138",
           "lat":41.854225,
           "lng":-87.685129,
           "name":"Western"
        },
        "139":{
           "id":"139",
           "lat":41.966163,
           "lng":-87.688502,
           "name":"Western"
        },
        "140":{
           "id":"140",
           "lat":41.916157,
           "lng":-87.687364,
           "name":"Western"
        },
        "141":{
           "id":"141",
           "lat":41.875478,
           "lng":-87.688436,
           "name":"Western"
        },
        "142":{
           "id":"142",
           "lat":41.964273,
           "lng":-87.657588,
           "name":"Wilson"
        }
     },
     "title":"Chicago 'L'"
  },
  "systemId":"4",
  "nextStationId":"143",
  "nextLineId":"0"
}
