STOP_ID,DIRECTION_ID,STOP_NAME,STATION_NAME,STATION_DESCRIPTIVE_NAME,MAP_ID,ADA,RED,BLUE,G,BRN,P,Pexp,Y,Pnk,O,Location,Historical Wards 2003-2015,Zip Codes,Community Areas,Census Tracts,Wards
30162,W,18th (54th/Cermak-bound),18th,18th (Pink Line),40830,true,false,false,false,false,false,false,false,true,false,"(41.857908, -87.669147)",8,14920,33,343,26
30161,E,18th (Loop-bound),18th,18th (Pink Line),40830,true,false,false,false,false,false,false,false,true,false,"(41.857908, -87.669147)",8,14920,33,343,26
30022,N,35th/Archer (Loop-bound),35th/Archer,35th/Archer (Orange Line),40120,true,false,false,false,false,false,false,false,false,true,"(41.829353, -87.680622)",26,14924,56,719,1
30023,S,35th/Archer (Midway-bound),35th/Archer,35th/Archer (Orange Line),40120,true,false,false,false,false,false,false,false,false,true,"(41.829353, -87.680622)",26,14924,56,719,1
30214,S,35-Bronzeville-IIT (63rd-bound),35th-Bronzeville-IIT,35th-Bronzeville-IIT (Green Line),41120,true,false,false,true,false,false,false,false,false,false,"(41.831677, -87.625826)",12,21194,1,25,9
30213,N,35-Bronzeville-IIT (Harlem-bound),35th-Bronzeville-IIT,35th-Bronzeville-IIT (Green Line),41120,true,false,false,true,false,false,false,false,false,false,"(41.831677, -87.625826)",12,21194,1,25,9
30246,S,43rd (63rd-bound),43rd,43rd (Green Line),41270,true,false,false,true,false,false,false,false,false,false,"(41.816462, -87.619021)",12,4301,4,162,9
30245,N,43rd (Harlem-bound),43rd,43rd (Green Line),41270,true,false,false,true,false,false,false,false,false,false,"(41.816462, -87.619021)",12,4301,4,162,9
30210,S,47th (63rd-bound),47th,47th (Green Line),41080,true,false,false,true,false,false,false,false,false,false,"(41.809209, -87.618826)",12,21192,4,448,9
30209,N,47th (Harlem-bound),47th,47th (Green Line),41080,true,false,false,true,false,false,false,false,false,false,"(41.809209, -87.618826)",12,21192,4,448,9
30238,S,47th (95th-bound),47th,47th (Red Line),41230,true,true,false,false,false,false,false,false,false,false,"(41.810318, -87.63094)",12,14924,3,189,9
30237,N,47th (Howard-bound),47th,47th (Red Line),41230,true,true,false,false,false,false,false,false,false,false,"(41.810318, -87.63094)",12,14924,3,189,9
30025,S,51st (63rd-bound),51st,51st (Green Line),40130,true,false,false,true,false,false,false,false,false,false,"(41.80209, -87.618487)",12,21192,4,449,9
30024,N,51st (Harlem-bound),51st,51st (Green Line),40130,true,false,false,true,false,false,false,false,false,false,"(41.80209, -87.618487)",12,21192,4,449,9
30113,E,54th/Cermak (Loop-bound),54th/Cermak,54th/Cermak (Pink Line),40580,true,false,false,false,false,false,false,false,true,false,"(41.85177331, -87.75669201)",,4458,,,
30114,W,54th/Cermak (Terminal arrival),54th/Cermak,54th/Cermak (Pink Line),40580,true,false,false,false,false,false,false,false,true,false,"(41.85177331, -87.75669201)",,4458,,,
30178,S,63rd (95th-bound),63rd,63rd (Red Line),40910,true,true,false,false,false,false,false,false,false,false,"(41.780536, -87.630952)",53,21559,66,166,4
30177,N,63rd (Howard-bound),63rd,63rd (Red Line),40910,true,true,false,false,false,false,false,false,false,false,"(41.780536, -87.630952)",53,21559,66,166,4
30192,S,69th (95th-bound),69th,69th (Red Line),40990,true,true,false,false,false,false,false,false,false,false,"(41.768367, -87.625724)",31,21559,67,513,32
30191,N,69th (Howard-bound),69th,69th (Red Line),40990,true,true,false,false,false,false,false,false,false,false,"(41.768367, -87.625724)",31,21559,67,513,32
30047,S,79th (95th-bound),79th,79th (Red Line),40240,true,true,false,false,false,false,false,false,false,false,"(41.750419, -87.625112)",31,21554,40,1,32
30046,N,79th (Howard-bound),79th,79th (Red Line),40240,true,true,false,false,false,false,false,false,false,false,"(41.750419, -87.625112)",31,21554,40,1,32
30275,N,87th (Howard-bound),87th,87th (Red Line),41430,true,true,false,false,false,false,false,false,false,false,"(41.735372, -87.624717)",18,21554,40,1,13
30276,S,87th (95th-bound),87th,87th (Red Line),41430,true,true,false,false,false,false,false,false,false,false,"(41.735372, -87.624717)",18,21554,40,1,13
30089,S,95th/Dan Ryan (95th-bound),95th/Dan Ryan,95th/Dan Ryan (Red Line),40450,true,true,false,false,false,false,false,false,false,false,"(41.722377, -87.624342)",18,21861,45,187,13
30088,N,95th/Dan Ryan (Howard-bound),95th/Ran Ryan,95th/Ran Ryan (Red Line),40450,true,true,false,false,false,false,false,false,false,false,"(41.722377, -87.624342)",18,21861,45,187,13
30132,S,Adams/Wabash (Inner Loop),Adams/Wabash,"Adams/Wabash (Brown, Green, Orange, Pink & Purple Lines)",40680,false,false,false,true,false,false,true,false,true,true,"(41.879507, -87.626037)",22,14912,38,367,36
30131,N,Adams/Wabash (Outer Loop),Adams/Wabash,"Adams/Wabash (Brown, Green, Orange, Pink & Purple Lines)",40680,false,false,false,true,true,false,false,false,false,false,"(41.879507, -87.626037)",22,14912,38,367,36
30239,N,Addison (O'Hare-bound),Addison,Addison (Blue Line),41240,true,false,true,false,false,false,false,false,false,false,"(41.94738, -87.71906)",15,21538,16,326,50
30240,S,Addison (Forest Pk-bound),Addison,Addison (Blue Line),41240,true,false,true,false,false,false,false,false,false,false,"(41.94738, -87.71906)",15,21538,16,326,50
30277,N,Addison (Kimball-bound),Addison,Addison (Brown Line),41440,true,false,false,false,true,false,false,false,false,false,"(41.947028, -87.674642)",13,21186,46,644,18
30278,S,Addison (Loop-bound),Addison,Addison (Brown Line),41440,true,false,false,false,true,false,false,false,false,false,"(41.947028, -87.674642)",13,21186,46,644,18
30274,S,Addison (95th-bound),Addison,Addison (Red Line),41420,true,true,false,false,false,false,false,false,false,false,"(41.947428, -87.653626)",38,21186,57,727,25
30273,N,Addison (Howard-bound),Addison,Addison (Red Line),41420,true,true,false,false,false,false,false,false,false,false,"(41.947428, -87.653626)",38,21186,57,727,25
30230,S,Argyle (95th-bound),Argyle,Argyle (Red Line),41200,false,true,false,false,false,false,false,false,false,false,"(41.973453, -87.65853)",40,22616,31,634,16
30229,N,Argyle (Howard-bound),Argyle,Argyle (Red Line),41200,false,true,false,false,false,false,false,false,false,false,"(41.973453, -87.65853)",40,22616,31,634,16
30127,N,Armitage (Kimball-Linden-bound),Armitage,Armitage (Brown & Purple Lines),40660,true,false,false,false,true,false,true,false,false,false,"(41.918217, -87.652644)",51,21190,68,744,34
30128,S,Armitage (Loop-bound),Armitage,Armitage (Brown & Purple Lines),40660,true,false,false,false,true,false,true,false,false,false,"(41.918217, -87.652644)",51,21190,68,744,34
30032,E,Ashland (Loop-63rd-bound),Ashland,Ashland (Green & Pink Lines),40170,true,false,false,true,false,false,false,false,true,false,"(41.885269, -87.666969)",41,14917,29,579,46
30033,W,Ashland (Harlem-54th/Cermak-bound),Ashland,Ashland (Green & Pink Lines),40170,true,false,false,true,false,false,false,false,true,false,"(41.885269, -87.666969)",41,14917,29,579,46
30205,N,Ashland (Loop-bound),Ashland,Ashland (Orange Line),41060,true,false,false,false,false,false,false,false,false,true,"(41.839234, -87.665317)",26,14920,33,126,26
30206,S,Ashland (Midway-bound),Ashland,Ashland (Orange Line),41060,true,false,false,false,false,false,false,false,false,true,"(41.839234, -87.665317)",26,14920,33,126,26
30056,E,Ashland/63rd (Harlem-bound),Ashland/63rd,Ashland/63rd (Green Line),40290,true,false,false,true,false,false,false,false,false,false,"(41.77886, -87.663766)",19,22257,65,279,2
30057,W,Ashland/63rd (Terminal arrival),Ashland/63rd,Ashland/63rd (Green Line),40290,true,false,false,true,false,false,false,false,false,false,"(41.77886, -87.663766)",19,22257,65,279,2
30002,W,Austin (Forest Pk-bound),Austin,Austin (Blue Line),40010,false,false,true,false,false,false,false,false,false,false,"(41.870851, -87.776812)",,26618,,,
30001,E,Austin (O'Hare-bound),Austin,Austin (Blue Line),40010,false,false,true,false,false,false,false,false,false,false,"(41.870851, -87.776812)",,26618,,,
30243,E,Austin (63rd-bound),Austin,Austin (Green Line),41260,false,false,false,true,false,false,false,false,false,false,"(41.887293, -87.774135)",52,22216,26,672,7
30244,W,Austin (Harlem-bound),Austin,Austin (Green Line),41260,false,false,false,true,false,false,false,false,false,false,"(41.887293, -87.774135)",52,22216,26,672,7
30013,S,Belmont (O'Hare Branch) (Forest Pk-bound),Belmont,Belmont (Blue Line),40060,false,false,true,false,false,false,false,false,false,false,"(41.938132, -87.712359)",15,21538,22,216,12
30012,N,Belmont (O'Hare Branch) (O'Hare-bound),Belmont,Belmont (Blue Line),40060,false,false,true,false,false,false,false,false,false,false,"(41.938132, -87.712359)",15,21538,22,216,12
30256,S,Belmont (95th-bound),Belmont,"Belmont (Red, Brown & Purple Lines)",41320,true,true,false,false,false,false,false,false,false,false,"(41.939751, -87.65338)",38,4449,57,681,25
30255,N,Belmont (Howard-bound),Belmont,"Belmont (Red, Brown & Purple Lines)",41320,true,true,false,false,false,false,false,false,false,false,"(41.939751, -87.65338)",38,4449,57,681,25
30257,N,Belmont (Kimball-Linden-bound),Belmont,"Belmont (Red, Brown & Purple Lines)",41320,true,false,false,false,true,false,true,false,false,false,"(41.939751, -87.65338)",38,4449,57,681,25
30258,S,Belmont (Loop-bound),Belmont,"Belmont (Red, Brown & Purple Lines)",41320,true,false,false,false,true,false,true,false,false,false,"(41.939751, -87.65338)",38,4449,57,681,25
30067,S,Berwyn (95th-bound),Berwyn,Berwyn (Red Line),40340,false,true,false,false,false,false,false,false,false,false,"(41.977984, -87.658668)",40,22616,76,160,16
30066,N,Berwyn (Howard-bound),Berwyn,Berwyn (Red Line),40340,false,true,false,false,false,false,false,false,false,false,"(41.977984, -87.658668)",40,22616,76,160,16
30268,S,Bryn Mawr (95th-bound),Bryn Mawr,Bryn Mawr (Red Line),41380,false,true,false,false,false,false,false,false,false,false,"(41.983504, -87.65884)",40,22616,76,145,16
30267,N,Bryn Mawr (Howard-bound),Bryn Mawr,Bryn Mawr (Red Line),41380,false,true,false,false,false,false,false,false,false,false,"(41.983504, -87.65884)",40,22616,76,145,16
30087,W,California (54th/Cermak-bound),California,California (Pink Line),40440,true,false,false,false,false,false,false,false,true,false,"(41.854109, -87.694774)",11,14920,32,203,1
30086,E,California (Loop-bound),California,California (Pink Line),40440,true,false,false,false,false,false,false,false,true,false,"(41.854109, -87.694774)",11,14920,32,203,1
30265,E,California (63rd-bound),California,California (Green Line),41360,true,false,false,true,false,false,false,false,false,false,"(41.88422, -87.696234)",41,21184,28,50,46
30266,W,California (Harlem-bound),California,California (Green Line),41360,true,false,false,true,false,false,false,false,false,false,"(41.88422, -87.696234)",41,21184,28,50,46
30111,N,California (O'Hare-bound),California,California (Blue Line),40570,false,false,true,false,false,false,false,false,false,false,"(41.921939, -87.69689)",24,22535,23,294,41
30112,S,California (Forest Pk-bound),California,California  (Blue Line),40570,false,false,true,false,false,false,false,false,false,false,"(41.921939, -87.69689)",24,22535,23,294,41
30054,E,Central (63rd-bound),Central,Central (Green Line),40280,true,false,false,true,false,false,false,false,false,false,"(41.887389, -87.76565)",52,22216,26,672,7
30055,W,Central (Harlem-bound),Central,Central (Green Line),40280,true,false,false,true,false,false,false,false,false,false,"(41.887389, -87.76565)",52,22216,26,672,7
30242,S,Central (Howard-Loop-bound),Central,Central (Purple Line),41250,false,false,false,false,false,true,true,false,false,false,"(42.063987, -87.685617)",,26293,,,
30241,N,Central (Linden-bound),Central,Central (Purple Line),41250,false,false,false,false,false,true,true,false,false,false,"(42.063987, -87.685617)",,26293,,,
30152,W,Central Park (54th/Cermak-bound),Central Park,Central Park (Pink Line),40780,true,false,false,false,false,false,false,false,true,false,"(41.853839, -87.714842)",36,21569,30,157,14
30151,E,Central Park (Loop-bound),Central Park,Central Park (Pink Line),40780,true,false,false,false,false,false,false,false,true,false,"(41.853839, -87.714842)",36,21569,30,157,14
30194,S,Cermak-Chinatown (95th-bound),Cermak-Chinatown,Cermak-Chinatown (Red Line),41000,true,true,false,false,false,false,false,false,false,false,"(41.853206, -87.630968)",8,21194,35,3,26
30193,N,Cermak-Chinatown (Howard-bound),Cermak-Chinatown,Cermak-Chinatown (Red Line),41000,true,true,false,false,false,false,false,false,false,false,"(41.853206, -87.630968)",8,21194,35,3,26
30382,S,Cermak-McCormick Place (63rd-bound),Cermak-McCormick Place,Cermak-McCormick Place (Green Line),41690,true,false,false,true,false,false,false,false,false,false,"(41.853115, -87.626402)",12,21194,34,374,9
30381,N,Cermak-McCormick Place (Harlem-bound),Cermak-McCormick Place,Cermak-McCormick Place (Green Line),41690,true,false,false,true,false,false,false,false,false,false,"(41.853115, -87.626402)",12,21194,34,374,9
30271,N,Chicago (O'Hare-bound),Chicago,Chicago (Blue Line),41410,false,false,true,false,false,false,false,false,false,false,"(41.896075, -87.655214)",41,22620,25,522,46
30138,S,Chicago (Loop-bound),Chicago,Chicago (Brown & Purple Lines),40710,true,false,false,false,true,false,true,false,false,false,"(41.89681, -87.635924)",41,14926,37,652,46
30137,N,Chicago (Kimball-Linden-bound),Chicago,Chicago (Brown & Purple Lines),40710,true,false,false,false,true,false,true,false,false,false,"(41.89681, -87.635924)",41,14926,37,652,46
30280,S,Chicago (95th-bound),Chicago,Chicago (Red Line),41450,true,true,false,false,false,false,false,false,false,false,"(41.896671, -87.628176)",22,21182,37,626,36
30279,N,Chicago (Howard-bound),Chicago,Chicago (Red Line),41450,true,true,false,false,false,false,false,false,false,false,"(41.896671, -87.628176)",22,21182,37,626,36
30272,S,Chicago (Forest Pk-bound),Chicago,Chicago (Blue Line),41410,false,false,true,false,false,false,false,false,false,false,"(41.896075, -87.655214)",41,22620,25,522,46
30083,W,Cicero (54th/Cermak-bound),Cicero,Cicero (Pink Line),40420,true,false,false,false,false,false,false,false,true,false,"(41.85182, -87.745336)",,4458,,,
30082,E,Cicero (Loop-bound),Cicero,Cicero (Pink Line),40420,true,false,false,false,false,false,false,false,true,false,"(41.85182, -87.745336)",,4458,,,
30188,W,Cicero (Forest Pk-bound),Cicero,Cicero (Blue Line),40970,false,false,true,false,false,false,false,false,false,false,"(41.871574, -87.745154)",36,22216,26,61,7
30187,E,Cicero (O'Hare-bound),Cicero,Cicero (Blue Line),40970,false,false,true,false,false,false,false,false,false,false,"(41.871574, -87.745154)",36,22216,26,61,7
30094,E,Cicero (63rd-bound),Cicero,Cicero (Green Line),40480,true,false,false,true,false,false,false,false,false,false,"(41.886519, -87.744698)",11,22216,26,696,23
30009,W,Cicero (Harlem-bound),Cicero,Cicero (Green Line),40480,true,false,false,true,false,false,false,false,false,false,"(41.886519, -87.744698)",11,22216,26,696,23
30122,S,Clark/Division (95th-bound),Clark/Division,Clark/Division (Red Line),40630,true,true,false,false,false,false,false,false,false,false,"(41.90392, -87.631412)",22,14926,37,17,11
30121,N,Clark/Division (Howard-bound),Clark/Division,Clark/Division (Red Line),40630,true,true,false,false,false,false,false,false,false,false,"(41.90392, -87.631412)",22,14926,37,17,11
30074,E,Clark/Lake (Inner Loop),Clark/Lake,"Clark/Lake (Blue, Brown, Green, Orange, Purple & Pink Lines)",40380,true,false,false,true,false,false,true,false,true,true,"(41.885737, -87.630886)",22,14309,38,92,36
30075,W,Clark/Lake (Outer Loop),Clark/Lake,"Clark/Lake (Blue, Brown, Green, Orange, Purple & Pink Lines)",40380,true,false,false,true,true,false,false,false,false,false,"(41.885737, -87.630886)",22,14309,38,92,36
30374,S,Clark/Lake (Forest Pk-bound),Clark/Lake,"Clark/Lake (Blue, Brown, Green, Orange, Purple & Pink Lines)",40380,true,false,true,false,false,false,false,false,false,false,"(41.885737, -87.630886)",22,14309,38,92,36
30375,N,Clark/Lake (O'Hare-bound),Clark/Lake,"Clark/Lake (Blue, Brown, Green, Orange, Purple & Pink Lines)",40380,true,false,true,false,false,false,false,false,false,false,"(41.885737, -87.630886)",22,14309,38,92,36
30085,W,Clinton (Forest Pk-bound),Clinton,Clinton (Blue Line),40430,false,false,true,false,false,false,false,false,false,false,"(41.875539, -87.640984)",48,14917,29,97,26
30084,E,Clinton (O'Hare-bound),Clinton,Clinton (Blue Line),40430,false,false,true,false,false,false,false,false,false,false,"(41.875539, -87.640984)",48,14917,29,97,26
30222,W,Clinton (Harlem-54th/Cermak-bound),Clinton,Clinton (Green & Pink Lines),41160,true,false,false,true,false,false,false,false,true,false,"(41.885678, -87.641782)",22,4452,29,784,36
30221,E,Clinton (Loop-63rd-bound),Clinton,Clinton (Green & Pink Lines),41160,true,false,false,true,false,false,false,false,true,false,"(41.885678, -87.641782)",22,4452,29,784,36
30291,E,Conservatory (63rd-bound),Conservatory,Conservatory (Green Line),41670,true,false,false,true,false,false,false,false,false,false,"(41.884904, -87.716523)",11,21572,28,176,23
30292,W,Conservatory (Harlem-bound),Conservatory,Conservatory (Green Line),41670,true,false,false,true,false,false,false,false,false,false,"(41.884904, -87.716523)",11,21572,28,176,23
30139,E,Cottage Grove (Terminal arrival),Cottage Grove,Cottage Grove (Green Line),40720,true,false,false,true,false,false,false,false,false,false,"(41.780309, -87.605857)",53,22260,9,347,4
30140,W,Cottage Grove (Harlem-bound),Cottage Grove,Cottage Grove (Green Line),40720,true,false,false,true,false,false,false,false,false,false,"(41.780309, -87.605857)",53,22260,9,347,4
30045,S,Cumberland (Forest Pk-bound),Cumberland,Cumberland (Blue Line),40230,true,false,true,false,false,false,false,false,false,false,"(41.984246, -87.838028)",34,22243,75,64,29
30044,N,Cumberland (O'Hare-bound),Cumberland,Cumberland (Blue Line),40230,true,false,true,false,false,false,false,false,false,false,"(41.984246, -87.838028)",34,22243,75,64,29
30041,W,Damen (54th/Cermak-bound),Damen,Damen (Pink Line),40210,true,false,false,false,false,false,false,false,true,false,"(41.854517, -87.675975)",8,14920,33,366,26
30040,E,Damen (Loop-bound),Damen,Damen (Pink Line),40210,true,false,false,false,false,false,false,false,true,false,"(41.854517, -87.675975)",8,14920,33,366,26
30116,S,Damen/Milwaukee (Forest Pk-bound),Damen,Damen (Blue Line),40590,false,false,true,false,false,false,false,false,false,false,"(41.909744, -87.677437)",24,21560,25,481,41
30115,N,Damen/Milwaukee (O'Hare-bound),Damen,Damen (Blue Line),40590,false,false,true,false,false,false,false,false,false,false,"(41.909744, -87.677437)",24,21560,25,481,41
30018,N,Damen (Kimball-bound),Damen,Damen (Brown Line),40090,true,false,false,false,true,false,false,false,false,false,"(41.966286, -87.678639)",13,21849,6,225,18
30019,S,Damen (Loop-bound),Damen,Damen (Brown Line),40090,true,false,false,false,true,false,false,false,false,false,"(41.966286, -87.678639)",13,21849,6,225,18
30011,S,Davis (Howard-Loop-bound),Davis,Davis (Purple Line),40050,true,false,false,false,false,true,true,false,false,false,"(42.04771, -87.683543)",,26293,,,
30010,N,Davis (Linden-bound),Davis,Davis (Purple Line),40050,true,false,false,false,false,true,true,false,false,false,"(42.04771, -87.683543)",,26293,,,
30134,S,Dempster (Howard-Loop-bound),Dempster,Dempster (Purple Line),40690,false,false,false,false,false,true,true,false,false,false,"(42.041655, -87.681602)",,26293,,,
30133,N,Dempster (Linden-bound),Dempster,Dempster (Purple Line),40690,false,false,false,false,false,true,true,false,false,false,"(42.041655, -87.681602)",,26293,,,
30027,S,Dempster-Skokie (Howard-bound),Dempster-Skokie,Dempster-Skokie  (Yellow Line),40140,true,false,false,false,false,false,false,true,false,false,"(42.038951, -87.751919)",,9460,,,
30026,N,Dempster-Skokie (Arrival),Dempster-Skokie,Dempster-Skokie  (Yellow Line),40140,true,false,false,false,false,false,false,true,false,false,"(42.038951, -87.751919)",,9460,,,
30103,N,Diversey (Kimball-Linden-bound),Diversey,Diversey (Brown & Purple Lines),40530,true,false,false,false,true,false,true,false,false,false,"(41.932732, -87.653131)",38,21190,57,681,25
30104,S,Diversey (Loop-bound),Diversey,Diversey (Brown & Purple Lines),40530,true,false,false,false,true,false,true,false,false,false,"(41.932732, -87.653131)",38,21190,57,681,25
30063,S,Division (Forest Pk-bound),Division,Division (Blue Line),40320,false,false,true,false,false,false,false,false,false,false,"(41.903355, -87.666496)",24,22620,25,484,11
30062,N,Division (O'Hare-bound),Division,Division (Blue Line),40320,false,false,true,false,false,false,false,false,false,false,"(41.903355, -87.666496)",24,22620,25,484,11
30076,E,Forest Park (O'Hare-bound),Forest Park,Forest Park (Blue Line),40390,true,false,true,false,false,false,false,false,false,false,"(41.874257, -87.817318)",,15606,,,
30077,W,Forest Park (Terminal Arrival),Forest Park,Forest Park (Blue Line),40390,true,false,true,false,false,false,false,false,false,false,"(41.874257, -87.817318)",,15606,,,
30102,S,Foster (Howard-Loop-bound),Foster,Foster (Purple Line),40520,false,false,false,false,false,true,true,false,false,false,"(42.05416, -87.68356)",,26293,,,
30101,N,Foster (Linden-bound),Foster,Foster (Purple Line),40520,false,false,false,false,false,true,true,false,false,false,"(42.05416, -87.68356)",,26293,,,
30167,N,Francisco (Kimball-bound),Francisco,Francisco (Brown Line),40870,true,false,false,false,true,false,false,false,false,false,"(41.966046, -87.701644)",2,21849,14,258,20
30168,S,Francisco (Loop-bound),Francisco,Francisco (Brown Line),40870,true,false,false,false,true,false,false,false,false,false,"(41.966046, -87.701644)",2,21849,14,258,20
30234,S,Fullerton (95th-bound),Fullerton,"Fullerton (Red, Brown & Purple Lines)",41220,true,true,false,false,false,false,false,false,false,false,"(41.925051, -87.652866)",51,21190,68,744,34
30233,N,Fullerton (Howard-bound),Fullerton,"Fullerton (Red, Brown & Purple Lines)",41220,true,true,false,false,false,false,false,false,false,false,"(41.925051, -87.652866)",51,21190,68,744,34
30235,N,Fullerton (Kimball-Linden-bound),Fullerton,"Fullerton (Red, Brown & Purple Lines)",41220,true,false,false,false,true,false,true,false,false,false,"(41.925051, -87.652866)",51,21190,68,744,34
30236,S,Fullerton (Loop-bound),Fullerton,"Fullerton (Red, Brown & Purple Lines)",41220,true,false,false,false,true,false,true,false,false,false,"(41.925051, -87.652866)",51,21190,68,744,34
30100,S,Garfield (63rd-bound),Garfield,Garfield (Green Line),40510,true,false,false,true,false,false,false,false,false,false,"(41.795172, -87.618327)",12,21192,7,401,9
30099,N,Garfield (Harlem-bound),Garfield,Garfield (Green Line),40510,true,false,false,true,false,false,false,false,false,false,"(41.795172, -87.618327)",12,21192,7,401,9
30224,S,Garfield (95th-bound),Garfield,Garfield (Red Line),41170,true,true,false,false,false,false,false,false,false,false,"(41.79542, -87.631157)",12,14924,3,224,9
30223,N,Garfield (Howard-bound),Garfield,Garfield (Red Line),41170,true,true,false,false,false,false,false,false,false,false,"(41.79542, -87.631157)",12,14924,3,224,9
30096,S,Grand/Milwaukee (Forest Pk-bound),Grand,Grand (Blue Line),40490,false,false,true,false,false,false,false,false,false,false,"(41.891189, -87.647578)",41,4446,25,109,46
30095,N,Grand/Milwaukee (O'Hare-bound),Grand,Grand (Blue Line),40490,false,false,true,false,false,false,false,false,false,false,"(41.891189, -87.647578)",41,4446,25,109,46
30065,S,Grand/State (95th-bound),Grand,Grand (Red Line),40330,true,true,false,false,false,false,false,false,false,false,"(41.891665, -87.628021)",22,21182,37,626,36
30064,N,Grand/State (Howard-bound),Grand,Grand (Red Line),40330,true,true,false,false,false,false,false,false,false,false,"(41.891665, -87.628021)",22,21182,37,626,36
30148,S,Granville (95th-bound),Granville,Granville (Red Line),40760,true,true,false,false,false,false,false,false,false,false,"(41.993664, -87.659202)",40,4451,76,46,16
30147,N,Granville (Howard-bound),Granville,Granville (Red Line),40760,true,true,false,false,false,false,false,false,false,false,"(41.993664, -87.659202)",40,4451,76,46,16
30215,N,Halsted (Loop-bound),Halsted,Halsted (Orange Line),41130,true,false,false,false,false,false,false,false,false,true,"(41.84678, -87.648088)",26,14920,58,59,48
30216,S,Halsted (Midway-bound),Halsted,Halsted (Orange Line),41130,true,false,false,false,false,false,false,false,false,true,"(41.84678, -87.648088)",26,14920,58,59,48
30184,W,Halsted/63rd (Ashland-bound),Halsted,Halsted (Green Line),40940,true,false,false,true,false,false,false,false,false,false,"(41.778943, -87.644244)",53,21559,66,435,4
30183,E,Halsted/63rd (Harlem-bound),Halsted,Halsted (Green Line),40940,true,false,false,true,false,false,false,false,false,false,"(41.778943, -87.644244)",53,21559,66,435,4
30146,S,Harlem (O'Hare Branch) (Forest Pk-bound),Harlem,Harlem (Blue Line - O'Hare Branch),40750,true,false,true,false,false,false,false,false,false,false,"(41.98227, -87.8089)",34,4448,36,735,29
30145,N,Harlem (O'Hare Branch) (O'Hare-bound),Harlem,Harlem (Blue Line - O'Hare Branch),40750,true,false,true,false,false,false,false,false,false,false,"(41.98227, -87.8089)",34,4448,36,735,29
30189,E,Harlem (Forest Pk Branch) (O'Hare-bound),Harlem,Harlem (Blue Line - Forest Park Branch),40980,false,false,true,false,false,false,false,false,false,false,"(41.87349, -87.806961)",,15606,,,
30190,W,Harlem (Forest Pk Branch) (Terminal arrival),Harlem,Harlem (Blue Line - Forest Park Branch),40980,false,false,true,false,false,false,false,false,false,false,"(41.87349, -87.806961)",,15606,,,
30004,W,Harlem (Terminal arrival),Harlem/Lake,Harlem/Lake (Green Line),40020,true,false,false,true,false,false,false,false,false,false,"(41.886848, -87.803176)",,26611,,,
30003,E,Harlem (63rd-bound),Harlem/Lake,Harlem/Lake (Green Line),40020,true,false,false,true,false,false,false,false,false,false,"(41.886848, -87.803176)",,26611,,,
30166,W,H.W. Library (Inner Loop),Harold Washington Library-State/Van Buren,"Harold Washington Library-State/Van Buren (Brown, Orange, Purple & Pink Lines)",40850,true,false,false,false,false,false,true,false,true,true,"(41.876862, -87.628196)",48,14913,38,92,10
30165,E,H.W. Library (Outer Loop),Harold Washington Library-State/Van Buren,"Harold Washington Library-State/Van Buren (Brown, Orange, Purple & Pink Lines)",40850,true,false,false,false,true,false,false,false,false,false,"(41.876862, -87.628196)",48,14913,38,92,10
30286,S,Harrison (95th-bound),Harrison,Harrison (Red Line),41490,false,true,false,false,false,false,false,false,false,false,"(41.874039, -87.627479)",48,14913,38,368,10
30285,N,Harrison (Howard-bound),Harrison,Harrison (Red Line),41490,false,true,false,false,false,false,false,false,false,false,"(41.874039, -87.627479)",48,14913,38,368,10
30176,S,Howard (Terminal arrival),Howard,"Howard (Red, Purple & Yellow Lines)",40900,true,false,false,false,false,true,true,true,false,false,"(42.019063, -87.672892)",3,21853,10,489,5
30173,N,Howard (Terminal arrival),Howard,"Howard (Red, Purple & Yellow Lines)",40900,true,true,false,false,false,false,false,false,false,false,"(42.019063, -87.672892)",3,21853,10,489,5
30174,S,Howard (95th-Bound),Howard,"Howard (Red, Purple & Yellow Lines)",40900,true,true,false,false,false,false,false,false,false,false,"(42.019063, -87.672892)",3,21853,10,489,5
30175,N,"Howard (Linden, Skokie-bound)",Howard,"Howard (Red, Purple & Yellow Lines)",40900,true,false,false,false,false,true,true,true,false,false,"(42.019063, -87.672892)",3,21853,10,489,5
30158,W,Illinois Medical District (Forest Pk-bound),Illinois Medical District,Illinois Medical District (Blue Line),40810,true,false,true,false,false,false,false,false,false,false,"(41.875706, -87.673932)",48,21184,29,90,46
30157,E,Illinois Medical District (O'Hare-bound),Illinois Medical District,Illinois Medical District (Blue Line),40810,true,false,true,false,false,false,false,false,false,false,"(41.875706, -87.673932)",48,21184,29,90,46
30059,S,Indiana (63rd-bound),Indiana,Indiana (Green Line),40300,true,false,false,true,false,false,false,false,false,false,"(41.821732, -87.621371)",12,4301,4,163,9
30058,N,Indiana (Harlem-bound),Indiana,Indiana (Green Line),40300,true,false,false,true,false,false,false,false,false,false,"(41.821732, -87.621371)",12,4301,4,163,9
30108,S,Irving Park (O'Hare Branch) (Forest Pk-bound),Irving Park,Irving Park (Blue Line),40550,false,false,true,false,false,false,false,false,false,false,"(41.952925, -87.729229)",28,22618,16,295,50
30107,N,Irving Park (O'Hare Branch) (O'Hare-bound),Irving Park,Irving Park (Blue Line),40550,false,false,true,false,false,false,false,false,false,false,"(41.952925, -87.729229)",28,22618,16,295,50
30281,N,Irving Park (Kimball-bound),Irving Park,Irving Park (Brown Line),41460,true,false,false,false,true,false,false,false,false,false,"(41.954521, -87.674868)",13,21186,46,622,18
30282,S,Irving Park (Loop-bound),Irving Park,Irving Park (Brown Line),41460,true,false,false,false,true,false,false,false,false,false,"(41.954521, -87.674868)",13,21186,46,622,18
30015,S,Jackson/Dearborn (Forest Pk-bound),Jackson,Jackson (Blue Line),40070,true,false,true,false,false,false,false,false,false,false,"(41.878183, -87.629296)",22,14912,38,92,36
30014,N,Jackson/Dearborn (O'Hare-bound),Jackson,Jackson (Blue Line),40070,true,false,true,false,false,false,false,false,false,false,"(41.878183, -87.629296)",22,14912,38,92,36
30110,S,Jackson/State (95th-bound),Jackson,Jackson (Red Line),40560,true,true,false,false,false,false,false,false,false,false,"(41.878153, -87.627596)",48,14912,38,367,10
30109,N,Jackson/State (Howard-bound),Jackson,Jackson (Red Line),40560,true,true,false,false,false,false,false,false,false,false,"(41.878153, -87.627596)",48,14912,38,367,10
30228,S,Jarvis (95th-bound),Jarvis,Jarvis (Red Line),41190,false,true,false,false,false,false,false,false,false,false,"(42.015876, -87.669092)",3,21853,10,357,5
30227,N,Jarvis (Howard-bound),Jarvis,Jarvis (Red Line),41190,false,true,false,false,false,false,false,false,false,false,"(42.015876, -87.669092)",3,21853,10,357,5
30248,S,Jefferson Park (Forest Pk-bound),Jefferson Park,Jefferson Park (Blue Line),41280,true,false,true,false,false,false,false,false,false,false,"(41.970634, -87.760892)",20,21869,11,129,50
30247,N,Jefferson Park (O'Hare-bound),Jefferson Park,Jefferson Park (Blue Line),41280,true,false,true,false,false,false,false,false,false,false,"(41.970634, -87.760892)",20,21869,11,129,50
30219,N,Kedzie (Loop-bound),Kedzie,Kedzie (Orange Line),41150,true,false,false,false,false,false,false,false,false,true,"(41.804236, -87.704406)",49,22248,55,776,8
30220,S,Kedzie (Midway-bound),Kedzie,Kedzie (Orange Line),41150,true,false,false,false,false,false,false,false,false,true,"(41.804236, -87.704406)",49,22248,55,776,8
30202,W,Kedzie (54th/Cermak-bound),Kedzie,Kedzie (Pink Line),41040,true,false,false,false,false,false,false,false,true,false,"(41.853964, -87.705408)",36,21569,30,202,14
30201,E,Kedzie (Loop-bound),Kedzie,Kedzie (Pink Line),41040,true,false,false,false,false,false,false,false,true,false,"(41.853964, -87.705408)",36,21569,30,202,14
30225,N,Kedzie (Kimball-bound),Kedzie,Kedzie (Brown Line),41180,true,false,false,false,true,false,false,false,false,false,"(41.965996, -87.708821)",2,21849,14,118,20
30226,S,Kedzie (Loop-bound),Kedzie,Kedzie (Brown Line),41180,true,false,false,false,true,false,false,false,false,false,"(41.965996, -87.708821)",2,21849,14,118,20
30207,E,Kedzie (63rd-bound),Kedzie,Kedzie (Green Line),41070,true,false,false,true,false,false,false,false,false,false,"(41.884321, -87.706155)",41,21184,28,50,46
30208,W,Kedzie (Harlem-bound),Kedzie,Kedzie (Green Line),41070,true,false,false,true,false,false,false,false,false,false,"(41.884321, -87.706155)",41,21184,28,50,46
30049,W,Kedzie-Homan (Forest Pk-bound),Kedzie-Homan,Kedzie-Homan (Blue Line),40250,true,false,true,false,false,false,false,false,false,false,"(41.874341, -87.70604)",36,21572,28,765,14
30048,E,Kedzie-Homan (O'Hare-bound),Kedzie-Homan,Kedzie-Homan (Blue Line),40250,true,false,true,false,false,false,false,false,false,false,"(41.874341, -87.70604)",36,21572,28,765,14
30250,S,Kimball (Loop-bound),Kimball,Kimball (Brown Line),41290,true,false,false,false,true,false,false,false,false,false,"(41.967901, -87.713065)",2,21849,14,118,20
30249,N,Kimball (Terminal arrival),Kimball,Kimball (Brown Line),41290,true,false,false,false,true,false,false,false,false,false,"(41.967901, -87.713065)",2,21849,14,118,20
30217,E,King Drive (Cottage Grove-bound),King Drive,King Drive (Green Line),41140,true,false,false,true,false,false,false,false,false,false,"(41.78013, -87.615546)",53,22260,9,332,4
30218,W,King Drive (Harlem-bound),King Drive,King Drive (Green Line),41140,true,false,false,true,false,false,false,false,false,false,"(41.78013, -87.615546)",53,22260,9,332,4
30118,W,Kostner (54th/Cermak-bound),Kostner,Kostner (Pink Line),40600,true,false,false,false,false,false,false,false,true,false,"(41.853751, -87.733258)",36,21569,30,753,14
30117,E,Kostner (Loop-bound),Kostner,Kostner (Pink Line),40600,true,false,false,false,false,false,false,false,true,false,"(41.853751, -87.733258)",36,21569,30,753,14
30290,S,Lake (95th-bound),Lake,Lake (Red Line),41660,true,true,false,false,false,false,false,false,false,false,"(41.884809, -87.627813)",22,14309,38,580,36
30289,N,Lake (Howard-bound),Lake,Lake (Red Line),41660,true,true,false,false,false,false,false,false,false,false,"(41.884809, -87.627813)",22,14309,38,580,36
30135,E,Laramie (63rd-bound),Laramie,Laramie (Green Line),40700,true,false,false,true,false,false,false,false,false,false,"(41.887163, -87.754986)",11,22216,26,696,23
30136,W,Laramie (Harlem-bound),Laramie,Laramie (Green Line),40700,true,false,false,true,false,false,false,false,false,false,"(41.887163, -87.754986)",11,22216,26,696,23
30262,W,LaSalle (Forest Pk-bound),LaSalle,LaSalle (Blue Line),41340,false,false,true,false,false,false,false,false,false,false,"(41.875568, -87.631722)",48,14913,38,92,10
30261,E,LaSalle (O'Hare-bound),LaSalle,LaSalle (Blue Line),41340,false,false,true,false,false,false,false,false,false,false,"(41.875568, -87.631722)",48,14913,38,92,10
30031,W,LaSalle/Van Buren (Inner Loop),LaSalle/Van Buren,"LaSalle/Van Buren (Brown, Orange, Purple & Pink Lines)",40160,false,false,false,false,false,false,true,false,true,true,"(41.8768, -87.631739)",48,14913,38,92,10
30030,E,LaSalle/Van Buren (Outer Loop),LaSalle/Van Buren,"LaSalle/Van Buren (Brown, Orange, Purple & Pink Lines)",40160,false,false,false,false,true,false,false,false,false,false,"(41.8768, -87.631739)",48,14913,38,92,10
30150,S,Lawrence (95th-bound),Lawrence,Lawrence (Red Line),40770,false,true,false,false,false,false,false,false,false,false,"(41.969139, -87.658493)",40,22616,31,634,39
30149,N,Lawrence (Howard-bound),Lawrence,Lawrence (Red Line),40770,false,true,false,false,false,false,false,false,false,false,"(41.969139, -87.658493)",40,22616,31,634,39
30204,S,Linden (Howard-Loop-bound),Linden,Linden (Purple Line),41050,true,false,false,false,false,true,true,false,false,false,"(42.073153, -87.69073)",,9857,,,
30203,N,Linden (Linden-bound),Linden,Linden (Purple Line),41050,true,false,false,false,false,true,true,false,false,false,"(42.073153, -87.69073)",,9857,,,
30198,S,Logan Square (Forest Pk-bound),Logan Square,Logan Square (Blue Line),41020,true,false,true,false,false,false,false,false,false,false,"(41.929728, -87.708541)",15,22535,23,72,12
30197,N,Logan Square (O'Hare-bound),Logan Square,Logan Square (Blue Line),41020,true,false,true,false,false,false,false,false,false,false,"(41.929728, -87.708541)",15,22535,23,72,12
30252,S,Loyola (95th-bound),Loyola,Loyola (Red Line),41300,true,true,false,false,false,false,false,false,false,false,"(42.001073, -87.661061)",3,21853,10,48,5
30251,N,Loyola (Howard-bound),Loyola,Loyola (Red Line),41300,true,true,false,false,false,false,false,false,false,false,"(42.001073, -87.661061)",3,21853,10,48,5
30053,S,Main (Howard-Loop-bound),Main,Main (Purple Line),40270,false,false,false,false,false,true,true,false,false,false,"(42.033456, -87.679538)",,26609,,,
30052,N,Main (Linden-bound),Main,Main (Purple Line),40270,false,false,false,false,false,true,true,false,false,false,"(42.033456, -87.679538)",,26609,,,
30090,N,Merchandise Mart (Kimball-Linden-bound),Merchandise Mart,Merchandise Mart (Brown & Purple Lines),40460,true,false,false,false,true,false,true,false,false,false,"(41.888969, -87.633924)",22,4446,37,670,36
30091,S,Merchandise Mart (Loop-bound),Merchandise Mart,Merchandise Mart (Brown & Purple Lines),40460,true,false,false,false,true,false,true,false,false,false,"(41.888969, -87.633924)",22,4446,37,670,36
30182,S,Midway (Arrival),Midway,Midway (Orange Line),40930,true,false,false,false,false,false,false,false,false,true,"(41.78661, -87.737875)",35,21867,53,86,15
30181,N,Midway (Loop-bound),Midway,Midway (Orange Line),40930,true,false,false,false,false,false,false,false,false,true,"(41.78661, -87.737875)",35,21867,53,86,15
30154,S,Monroe (Forest Pk-bound),Monroe,Monroe (Blue Line),40790,false,false,true,false,false,false,false,false,false,false,"(41.880703, -87.629378)",22,14311,38,92,36
30212,S,Monroe (95th-bound),Monroe,Monroe (Red Line),41090,false,true,false,false,false,false,false,false,false,false,"(41.880745, -87.627696)",22,14311,38,367,36
30211,N,Monroe (Howard-bound),Monroe,Monroe (Red Line),41090,false,true,false,false,false,false,false,false,false,false,"(41.880745, -87.627696)",22,14311,38,367,36
30153,N,Monroe (O'Hare-bound),Monroe,Monroe (Blue Line),40790,false,false,true,false,false,false,false,false,false,false,"(41.880703, -87.629378)",22,14311,38,92,36
30260,S,Montrose (Forest Pk-bound),Montrose,Montrose (Blue Line),41330,false,false,true,false,false,false,false,false,false,false,"(41.961539, -87.743574)",20,21869,16,362,38
30259,N,Montrose (O'Hare-bound),Montrose,Montrose (Blue Line),41330,false,false,true,false,false,false,false,false,false,false,"(41.961539, -87.743574)",20,21869,16,362,38
30287,N,Montrose (Kimball-bound),Montrose,Montrose (Brown Line),41500,true,false,false,false,true,false,false,false,false,false,"(41.961756, -87.675047)",13,22616,6,225,18
30288,S,Montrose (Loop-bound),Montrose,Montrose (Brown Line),41500,true,false,false,false,true,false,false,false,false,false,"(41.961756, -87.675047)",13,22616,6,225,18
30296,W,Morgan (Harlem-54th/Cermak-bound),Morgan,Morgan (Green & Pink Lines),41510,true,false,false,true,false,false,false,false,true,false,"(41.885586, -87.652193)",41,14917,29,63,46
30295,E,Morgan (Loop-63rd-bound),Morgan,Morgan (Green & Pink Lines),41510,true,false,false,true,false,false,false,false,true,false,"(41.885586, -87.652193)",41,14917,29,63,46
30021,S,Morse (95th-bound),Morse,Morse (Red Line),40100,false,true,false,false,false,false,false,false,false,false,"(42.008362, -87.665909)",3,21853,10,358,5
30020,N,Morse (Howard-bound),Morse,Morse (Red Line),40100,false,true,false,false,false,false,false,false,false,false,"(42.008362, -87.665909)",3,21853,10,358,5
30126,S,North/Clybourn (95th-bound),North/Clybourn,North/Clybourn (Red Line),40650,false,true,false,false,false,false,false,false,false,false,"(41.910655, -87.649177)",51,22620,37,108,11
30125,N,North/Clybourn (Howard-bound),North/Clybourn,North/Clybourn (Red Line),40650,false,true,false,false,false,false,false,false,false,false,"(41.910655, -87.649177)",51,22620,37,108,11
30079,S,Noyes (Howard-Loop-bound),Noyes,Noyes (Purple Line),40400,false,false,false,false,false,true,true,false,false,false,"(42.058282, -87.683337)",,26293,,,
30078,N,Noyes (Linden-bound),Noyes,Noyes (Purple Line),40400,false,false,false,false,false,true,true,false,false,false,"(42.058282, -87.683337)",,26293,,,
30035,W,Oak Park (Forest Pk-bound),Oak Park,Oak Park (Blue Line),40180,false,false,true,false,false,false,false,false,false,false,"(41.872108, -87.791602)",,26618,,,
30034,E,Oak Park (O'Hare-bound),Oak Park,Oak Park (Blue Line),40180,false,false,true,false,false,false,false,false,false,false,"(41.872108, -87.791602)",,26618,,,
30263,E,Oak Park (63rd-bound),Oak Park,Oak Park (Green Line),41350,false,false,false,true,false,false,false,false,false,false,"(41.886988, -87.793783)",,26611,,,
30264,W,Oak Park (Harlem-bound),Oak Park,Oak Park (Green Line),41350,false,false,false,true,false,false,false,false,false,false,"(41.886988, -87.793783)",,26611,,,
30297,N,Oakton-Skokie (Dempster-Skokie-bound),Oakton-Skokie,Oakton-Skokie (Yellow Line),41680,true,false,false,false,false,false,false,true,false,false,"(42.02624348, -87.74722084)",,9460,,,
30298,S,Oakton-Skokie (Howard-bound),Oakton-Skokie,Oakton-Skokie (Yellow Line),41680,true,false,false,false,false,false,false,true,false,false,"(42.02624348, -87.74722084)",,9460,,,
30172,S,O'Hare (Forest Pk-bound),O'Hare,O'Hare (Blue Line),40890,true,false,true,false,false,false,false,false,false,false,"(41.97766526, -87.90422307)",34,16197,75,668,29
30171,N,O'Hare (Terminal Arrival),O'Hare,O'Hare (Blue Line),40890,true,false,true,false,false,false,false,false,false,false,"(41.97766526, -87.90422307)",34,16197,75,668,29
30253,N,Paulina (Kimball-bound),Paulina,Paulina (Brown Line),41310,true,false,false,false,true,false,false,false,false,false,"(41.943623, -87.670907)",16,4449,57,239,18
30254,S,Paulina (Loop-bound),Paulina,Paulina (Brown Line),41310,true,false,false,false,true,false,false,false,false,false,"(41.943623, -87.670907)",16,4449,57,239,18
30200,W,Polk (54th/Cermak-bound),Polk,Polk (Pink Line),41030,true,false,false,false,false,false,false,false,true,false,"(41.871551, -87.66953)",48,21184,29,5,46
30199,E,Polk (Loop-bound),Polk,Polk (Pink Line),41030,true,false,false,false,false,false,false,false,true,false,"(41.871551, -87.66953)",48,21184,29,5,46
30185,N,Pulaski (Loop-bound),Pulaski,Pulaski (Orange Line),40960,true,false,false,false,false,false,false,false,false,true,"(41.799756, -87.724493)",35,22248,60,793,6
30186,S,Pulaski (Midway-bound),Pulaski,Pulaski (Orange Line),40960,true,false,false,false,false,false,false,false,false,true,"(41.799756, -87.724493)",35,22248,60,793,6
30029,W,Pulaski (54th/Cermak-bound),Pulaski,Pulaski (Pink Line),40150,true,false,false,false,false,false,false,false,true,false,"(41.853732, -87.724311)",36,21569,30,752,14
30028,E,Pulaski (Loop-bound),Pulaski,Pulaski (Pink Line),40150,true,false,false,false,false,false,false,false,true,false,"(41.853732, -87.724311)",36,21569,30,752,14
30180,W,Pulaski (Forest Pk-bound),Pulaski,Pulaski (Blue Line),40920,false,false,true,false,false,false,false,false,false,false,"(41.873797, -87.725663)",36,21572,27,675,14
30179,E,Pulaski (O'Hare-bound),Pulaski,Pulaski (Blue Line),40920,false,false,true,false,false,false,false,false,false,false,"(41.873797, -87.725663)",36,21572,27,675,14
30005,E,Pulaski (63rd-bound),Pulaski,Pulaski (Green Line),40030,true,false,false,true,false,false,false,false,false,false,"(41.885412, -87.725404)",11,21572,27,658,23
30006,W,Pulaski (Harlem-bound),Pulaski,Pulaski (Green Line),40030,true,false,false,true,false,false,false,false,false,false,"(41.885412, -87.725404)",11,21572,27,658,23
30007,N,Quincy/Wells (Inner Loop),Quincy/Wells,"Quincy/Wells (Brown, Orange, Purple & Pink Lines)",40040,false,false,false,false,false,false,true,false,true,true,"(41.878723, -87.63374)",22,14912,38,92,36
30008,S,Quincy/Wells (Outer Loop),Quincy/Wells,"Quincy/Wells (Brown, Orange, Purple & Pink Lines)",40040,false,false,false,false,true,false,false,false,false,false,"(41.878723, -87.63374)",22,14912,38,92,36
30093,W,Racine (Forest Pk-bound),Racine,Racine (Blue Line),40470,false,false,true,false,false,false,false,false,false,false,"(41.87592, -87.659458)",48,14917,29,88,23
30092,E,Racine (O'Hare-bound),Racine,Racine (Blue Line),40470,false,false,true,false,false,false,false,false,false,false,"(41.87592, -87.659458)",48,14917,29,88,23
30119,E,Ridgeland (63rd-bound),Ridgeland,Ridgeland (Green Line),40610,false,false,false,true,false,false,false,false,false,false,"(41.887159, -87.783661)",,26615,,,
30120,W,Ridgeland (Harlem-bound),Ridgeland,Ridgeland (Green Line),40610,false,false,false,true,false,false,false,false,false,false,"(41.887159, -87.783661)",,26615,,,
30195,N,Rockwell (Kimball-bound),Rockwell,Rockwell (Brown Line),41010,true,false,false,false,true,false,false,false,false,false,"(41.966115, -87.6941)",13,21849,6,666,18
30196,S,Rockwell (Loop-bound),Rockwell,Rockwell (Brown Line),41010,true,false,false,false,true,false,false,false,false,false,"(41.966115, -87.6941)",13,21849,6,666,18
30080,N,Roosevelt (Loop-Harlem-bound),Roosevelt,"Roosevelt (Red, Orange & Green Lines)",41400,true,false,false,true,false,false,false,false,false,true,"(41.867405, -87.62659)",48,14913,34,374,9
30269,N,Roosevelt (Howard-bound),Roosevelt,"Roosevelt (Red, Orange & Green Lines)",41400,true,true,false,false,false,false,false,false,false,false,"(41.867368, -87.627402)",48,14913,34,374,9
30081,S,Roosevelt (Midway-63rd-bound),Roosevelt,"Roosevelt (Red, Orange & Green Lines)",41400,true,false,false,true,false,false,false,false,false,true,"(41.867405, -87.62659)",48,14913,34,374,9
30270,S,Roosevelt (95th-bound),Roosevelt,"Roosevelt (Red, Orange & Green Lines)",41400,true,true,false,false,false,false,false,false,false,false,"(41.867368, -87.627402)",48,14913,34,374,9
30160,S,Rosemont (Forest Pk-bound),Rosemont,Rosemont (Blue Line),40820,true,false,true,false,false,false,false,false,false,false,"(41.983507, -87.859388)",,16197,,,
30159,N,Rosemont (O'Hare-bound),Rosemont,Rosemont (Blue Line),40820,true,false,true,false,false,false,false,false,false,false,"(41.983507, -87.859388)",,16197,,,
30155,N,Sedgwick (Kimball-Linden-bound),Sedgwick,Sedgwick (Brown & Purple Lines),40800,true,false,false,false,true,false,true,false,false,false,"(41.910409, -87.639302)",51,14926,37,309,11
30156,S,Sedgwick (Loop-bound),Sedgwick,Sedgwick (Brown & Purple Lines),40800,true,false,false,false,true,false,true,false,false,false,"(41.910409, -87.639302)",51,14926,37,309,11
30017,S,Sheridan (95th-bound),Sheridan,Sheridan (Red Line),40080,false,true,false,false,false,false,false,false,false,false,"(41.953775, -87.654929)",38,21186,57,83,39
30016,N,Sheridan (Howard-bound),Sheridan,Sheridan (Red Line),40080,false,true,false,false,false,false,false,false,false,false,"(41.953775, -87.654929)",38,21186,57,83,39
30293,N,Sheridan (Howard-Linden-bound),Sheridan,Sheridan (Red Line),40080,false,false,false,false,false,false,false,false,false,false,"(41.953775, -87.654929)",38,21186,57,83,39
30294,S,Sheridan (Loop-bound),Sheridan,Sheridan (Red Line),40080,false,false,false,false,false,false,false,false,false,false,"(41.953775, -87.654929)",38,21186,57,83,39
30164,S,South Blvd (Howard-Loop-bound),South Boulevard,South Boulevard (Purple Line),40840,false,false,false,false,false,true,true,false,false,false,"(42.027612, -87.678329)",,26609,,,
30163,N,South Blvd (Linden-bound),South Boulevard,South Boulevard (Purple Line),40840,false,false,false,false,false,true,true,false,false,false,"(42.027612, -87.678329)",,26609,,,
30070,N,Southport (Kimball-bound),Southport,Southport (Brown Line),40360,true,false,false,false,true,false,false,false,false,false,"(41.943744, -87.663619)",38,4449,57,729,25
30071,S,Southport (Loop-bound),Southport,Southport (Brown Line),40360,true,false,false,false,true,false,false,false,false,false,"(41.943744, -87.663619)",38,4449,57,729,25
30037,S,Sox-35th (95th-bound),Sox-35th,Sox-35th (Red Line),40190,true,true,false,false,false,false,false,false,false,false,"(41.831191, -87.630636)",26,21194,35,376,48
30036,N,Sox-35th (Howard-bound),Sox-35th,Sox-35th (Red Line),40190,true,true,false,false,false,false,false,false,false,false,"(41.831191, -87.630636)",26,21194,35,376,48
30050,E,State/Lake (Inner Loop),State/Lake,"State/Lake (Brown, Green, Orange, Pink & Purple Lines)",40260,false,false,false,true,false,false,true,false,true,true,"(41.88574, -87.627835)",22,14309,38,580,36
30051,W,State/Lake (Outer Loop),State/Lake,"State/Lake (Brown, Green, Orange, Pink & Purple Lines)",40260,false,false,false,true,true,false,false,false,false,false,"(41.88574, -87.627835)",22,14309,38,580,36
30170,S,Thorndale (95th-bound),Thorndale,Thorndale (Red Line),40880,false,true,false,false,false,false,false,false,false,false,"(41.990259, -87.659076)",40,4451,76,213,16
30169,N,Thorndale (Howard-bound),Thorndale,Thorndale (Red Line),40880,false,true,false,false,false,false,false,false,false,false,"(41.990259, -87.659076)",40,4451,76,213,16
30069,W,UIC-Halsted (Forest Pk-bound),UIC-Halsted,UIC-Halsted (Blue Line),40350,true,false,true,false,false,false,false,false,false,false,"(41.875474, -87.649707)",48,14917,29,97,26
30068,E,UIC-Halsted (O'Hare-bound),UIC-Halsted,UIC-Halsted (Blue Line),40350,true,false,true,false,false,false,false,false,false,false,"(41.875474, -87.649707)",48,14917,29,97,26
30073,S,Washington (Forest Pk-bound),Washington,Washington (Blue Line),40370,false,false,true,false,false,false,false,false,false,false,"(41.883164, -87.62944)",22,14310,38,92,36
30072,N,Washington (O'Hare-bound),Washington,Washington (Blue Line),40370,false,false,true,false,false,false,false,false,false,false,"(41.883164, -87.62944)",22,14310,38,92,36
30383,N,Washington/Wabash (Outer Loop),Washington/Wabash,"Washington/Wabash (Brown, Green, Orange, Purple & Pink Lines)",41700,true,false,false,true,true,false,false,false,false,false,"(41.88322, -87.626189)",22,14310,38,580,36
30384,S,Washington/Wabash (Inner Loop),Washington/Wabash,"Washington/Wabash (Brown, Green, Orange, Purple & Pink Lines)",41700,true,false,false,true,false,false,true,false,true,true,"(41.88322, -87.626189)",22,14310,38,580,36
30141,N,Washington/Wells (Inner Loop),Washington/Wells,"Washington/Wells (Brown, Orange, Purple & Pink Lines)",40730,true,false,false,false,false,false,true,false,true,true,"(41.882695, -87.63378)",22,14310,38,92,36
30142,S,Washington/Wells (Outer Loop),Washington/Wells,"Washington/Wells (Brown, Orange, Purple & Pink Lines)",40730,true,false,false,false,true,false,false,false,false,false,"(41.882695, -87.63378)",22,14310,38,92,36
30231,N,Wellington (Kimball-Linden-bound),Wellington,Wellington (Brown & Purple Lines),41210,true,false,false,false,true,false,true,false,false,false,"(41.936033, -87.653266)",38,4449,57,681,25
30232,S,Wellington (Loop-bound),Wellington,Wellington (Brown & Purple Lines),41210,true,false,false,false,true,false,true,false,false,false,"(41.936033, -87.653266)",38,4449,57,681,25
30060,N,Western (Loop-bound),Western,Western (Orange Line),40310,true,false,false,false,false,false,false,false,false,true,"(41.804546, -87.684019)",19,14924,61,775,3
30061,S,Western (Midway-bound),Western,Western (Orange Line),40310,true,false,false,false,false,false,false,false,false,true,"(41.804546, -87.684019)",19,14924,61,775,3
30144,W,Western (54th/Cermak-bound),Western,Western (Pink Line),40740,true,false,false,false,false,false,false,false,true,false,"(41.854225, -87.685129)",8,14920,33,4,26
30143,E,Western (Loop-bound),Western,Western (Pink Line),40740,true,false,false,false,false,false,false,false,true,false,"(41.854225, -87.685129)",8,14920,33,4,26
30283,N,Western (Kimball-bound),Western,Western (Brown Line),41480,true,false,false,false,true,false,false,false,false,false,"(41.966163, -87.688502)",13,21849,6,665,18
30284,S,Western (Loop-bound),Western,Western (Brown Line),41480,true,false,false,false,true,false,false,false,false,false,"(41.966163, -87.688502)",13,21849,6,665,18
30130,S,Western (O'Hare Branch) (Forest Pk-bound),Western,Western (Blue Line - O'Hare Branch),40670,true,false,true,false,false,false,false,false,false,false,"(41.916157, -87.687364)",24,22535,23,373,40
30042,E,Western (Forest Pk Branch) (O'Hare-bound),Western,Western (Blue Line - Forest Park Branch),40220,false,false,true,false,false,false,false,false,false,false,"(41.875478, -87.688436)",48,21184,29,756,23
30043,W,Western (Forest Pk Branch) (Forest Pk-bound),Western,Western (Blue Line - Forest Park Branch),40220,false,false,true,false,false,false,false,false,false,false,"(41.875478, -87.688436)",48,21184,29,756,23
30129,N,Western (O'Hare Branch) (O'Hare-bound),Western,Western (Blue Line - O'Hare Branch),40670,true,false,true,false,false,false,false,false,false,false,"(41.916157, -87.687364)",24,22535,23,373,40
30385,S,Wilson (Loop-bound),Wilson,Wilson (Red & Purple Lines),40540,true,false,false,false,false,false,true,false,false,false,"(41.964273, -87.657588)",37,22616,31,241,39
30106,S,Wilson (95th-bound),Wilson,Wilson (Red & Purple Lines),40540,true,true,false,false,false,false,false,false,false,false,"(41.964273, -87.657588)",37,22616,31,241,39
30105,N,Wilson (Howard-bound),Wilson,Wilson (Red & Purple Lines),40540,true,true,false,false,false,false,false,false,false,false,"(41.964273, -87.657588)",37,22616,31,241,39
30386,N,Wilson (Linden-bound),Wilson,Wilson (Red & Purple Lines),40540,true,false,false,false,false,false,true,false,false,false,"(41.964273, -87.657588)",37,22616,31,241,39
